"","X","code","name","admin","longitude","latitude"
"1",1,"AD","Andorra",NA,1.5732033,42.5407167
"2",2,"AE","United Arab Emirates","United Arab Emirates",54.2067147615963,23.8686336533476
"3",3,"AF","Afghanistan","Afghanistan",66.0866902219283,33.8563992816908
"4",4,"AG","Antigua And Barbuda",NA,-61.9554608,17.2234721
"5",5,"AI","Anguilla",NA,-63.0750234,18.1954947
"6",6,"AL","Albania","Albania",20.0324264314432,41.1413533060488
"7",7,"AM","Armenia","Armenia",45.0002900110148,40.2166076123014
"8",8,"AN","Netherlands Antilles",NA,-68.9404723492907,12.1546009
"9",9,"AO","Angola","Angola",17.5029119215871,-12.2915534387057
"10",10,"AQ","Antarctica","Antarctica",21.2843929379916,-80.5227821964827
"11",11,"AR","Argentina","Argentina",-65.1495433909209,-35.2201719959357
"12",12,"AS","American Samoa",NA,-170.692511,-14.289304
"13",13,"AT","Austria","Austria",14.0761588843371,47.6139487927463
"14",14,"AU","Australia","Australia",134.376078573618,-25.5607640622395
"15",15,"AW","Aruba",NA,-69.9618475,12.5013629
"16",16,"AX","Aland Islands",NA,20.0831786096586,60.1603621
"17",17,"AZ","Azerbaijan","Azerbaijan",47.6805826775147,40.2805336536841
"18",18,"BA","Bosnia And Herzegovina","Bosnia and Herzegovina",17.816883421298,44.1807678413862
"19",19,"BB","Barbados",NA,-59.5250305,13.1500331
"20",20,"BD","Bangladesh","Bangladesh",90.267928277196,23.8394617953441
"21",21,"BE","Belgium","Belgium",4.5808315906517,50.6524426064521
"22",22,"BF","Burkina Faso","Burkina Faso",-1.77653745205594,12.3116504941367
"23",23,"BG","Bulgaria","Bulgaria",25.1951109532771,42.7531187620217
"24",24,"BH","Bahrain",NA,50.5344606,26.1551249
"25",25,"BI","Burundi","Burundi",29.9139008930711,-3.37739181242858
"26",26,"BJ","Benin","Benin",2.33737755349616,9.64743078066371
"27",27,"BM","Bermuda",NA,-64.7603583,32.3018217
"28",28,"BN","Brunei Darussalam","Brunei",114.91510877394,4.69025054252064
"29",29,"BO","Bolivia (Plurinational State Of)","Bolivia",-64.6414056060311,-16.7289870153058
"30",30,"BR","Brazil","Brazil",-53.0543400357671,-10.8067736434989
"31",31,"BS","Bahamas","The Bahamas",-77.9158047935553,24.506399672715
"32",32,"BT","Bhutan","Bhutan",90.4724248062037,27.427968649102
"33",33,"BV","Bouvet Island",NA,3.35997329522975,-54.4201305
"34",34,"BW","Botswana","Botswana",23.7730814657894,-22.0997113788264
"35",35,"BY","Belarus","Belarus",27.9813539869037,53.5063444047513
"36",36,"BZ","Belize","Belize",-88.7034212529932,17.1970899114515
"37",37,"CA","Canada","Canada",-101.569822125212,57.7487688035733
"38",38,"CC","Cocos (Keeling) Islands",NA,96.8409375,-12.0728315
"39",39,"CD","Congo Democratic Republic Of The","Democratic Republic of the Congo",23.5829558314791,-2.85027571109567
"40",40,"CF","Central African Republic","Central African Republic",20.3743472912439,6.5427787059213
"41",41,"CG","Congo","Republic of Congo",15.1344617674135,-0.837801087225289
"42",42,"CH","Switzerland","Switzerland",8.11830061338549,46.7917376836676
"43",43,"CI","C?Te D'ivoire","Ivory Coast",-5.61204364522522,7.55375500701049
"44",44,"CK","Cook Islands",NA,-160.3554851,-16.0492781
"45",45,"CL","Chile","Chile",-71.6709451193705,-37.3418318678577
"46",46,"CM","Cameroon","Cameroon",12.6115525151366,5.66309813030212
"47",47,"CN","China","China",103.865365256658,36.6094323800447
"48",48,"CO","Colombia","Colombia",-73.0777320869748,3.9272138627097
"49",49,"CR","Costa Rica","Costa Rica",-84.1754230960095,9.96567112746452
"50",50,"CS","Former Serbia And Montenegro",NA,NA,NA
"51",51,"CU","Cuba","Cuba",-78.9606849097026,21.6317515410252
"52",52,"CV","Cape Verde",NA,-24.0083947,16.0000552
"53",53,"CX","Christmas Island",NA,105.617351489796,-10.49124145
"54",54,"CY","Cyprus","Cyprus",33.0395538029541,34.9070608509434
"55",55,"CZ","Czech Republic","Czech Republic",15.3345581023658,49.775245294369
"56",56,"DD","Former East Germany",NA,10.1373337,54.3135372
"57",57,"DE","Germany","Germany",10.2884850927429,51.1337226904078
"58",58,"DJ","Djibouti","Djibouti",42.4980197360445,11.7730443955339
"59",59,"DK","Denmark","Denmark",9.31077778380468,56.2196262364472
"60",60,"DM","Dominica",NA,-70.3028026,19.0974031
"61",61,"DO","Dominican Republic","Dominican Republic",-70.4623584569753,18.8844870879823
"62",62,"DZ","Algeria","Algeria",2.59804779161835,28.1854812786575
"63",63,"EC","Ecuador","Ecuador",-78.3841667460837,-1.45477170554058
"64",64,"EE","Estonia","Estonia",25.8247283753199,58.643695240707
"65",65,"EG","Egypt","Egypt",29.8444615131244,26.5066199997495
"66",66,"EH","Western Sahara","Western Sahara",-12.1378311116078,24.2911729602086
"67",67,"ER","Eritrea","Eritrea",38.6781773422143,15.4272756579179
"68",68,"ES","Spain","Spain",-3.61702060238737,40.3486561062267
"69",69,"ET","Ethiopia","Ethiopia",39.5512557929378,8.65399918813263
"70",70,"FI","Finland","Finland",26.2117646973945,64.5040939185674
"71",71,"FJ","Fiji","Fiji",177.997070183364,-17.8309358925448
"72",72,"FK","Falkland Islands (Malvinas)","Falkland Islands",-59.4209727931102,-51.7132217655118
"73",73,"FM","Micronesia Federated States Of",NA,-77.0405464,38.9073892
"74",74,"FO","Faroe Islands",NA,-7.0322972,62.0448724
"75",75,"FR","France","France",2.33908864602935,46.6064633728632
"76",76,"GA","Gabon","Gabon",11.687751174902,-0.647048139804029
"77",77,"GB","United Kingdom Of Great Britain And Northern Ireland","United Kingdom",-2.65799297938563,53.8833587148481
"78",78,"GD","Grenada",NA,-61.6904045,12.1360374
"79",79,"GE","Georgia","Georgia",43.4815404197817,42.1620186998314
"80",80,"GF","French Guiana",NA,-52.999998,4.0039882
"81",81,"GG","Guernsey",NA,-2.52904344483099,49.5795202
"82",82,"GH","Ghana","Ghana",-1.2369685557064,7.92865181309965
"83",83,"GI","Gibraltar",NA,-5.33527718348356,36.10674695
"84",84,"GL","Greenland","Greenland",-41.500181114921,74.7704876939898
"85",85,"GM","Gambia","Gambia",-15.4318728077308,13.4753343587017
"86",86,"GN","Guinea","Guinea",-11.0608537411855,10.4482728772713
"87",87,"GP","Guadeloupe",NA,-61.5650444,16.2490067
"88",88,"GQ","Equatorial Guinea","Equatorial Guinea",10.366031325064,1.64586431996008
"89",89,"GR","Greece","Greece",22.5638881957888,39.3417465829272
"90",90,"GS","South Georgia And The South Sandwich",NA,NA,NA
"91",91,"IS","Ands","Iceland",-18.7610287708318,65.0742763352911
"92",92,"GT","Guatemala","Guatemala",-90.3694583605315,15.6993606120269
"93",93,"GU","Guam",NA,144.757551029721,13.4501257
"94",94,"GW","Guinea-Bissau","Guinea Bissau",-15.1106237516679,12.0227043823257
"95",95,"GY","Guyana","Guyana",-58.9712031085625,4.79022537517476
"96",96,"HK","Hong Kong",NA,114.1628131,22.2793278
"97",97,"HM","Heard And Mcdonald Islands",NA,73.529198153343,-53.0780659
"98",98,"HN","Honduras","Honduras",-86.5899638380155,14.8229470816529
"99",99,"HR","Croatia","Croatia",16.5661911066621,45.0162343679711
"100",100,"HT","Haiti","Haiti",-72.6580133053558,18.9007006918433
"101",101,"HU","Hungary","Hungary",19.3576286277459,47.1999511719543
"102",102,"ID","Indonesia","Indonesia",114.022683532525,-0.254301557222141
"103",103,"IE","Ireland","Ireland",-8.01023654487701,53.1805912099501
"104",104,"IL","Israel","Israel",35.0038500487362,31.4849178149654
"105",105,"IM","Isle Of Man",NA,-4.51459874569825,54.2358167
"106",106,"IN","India","India",79.5937037632538,22.9250064074085
"107",107,"IO","British Indian Ocean Territor",NA,NA,NA
"108",108,"IQ","Iraq","Iraq",43.7569114187134,33.0368223410367
"109",109,"IR","Iran Islamic Republic Of","Iran",54.2854514968914,32.5189173176254
"111",111,"IT","Italy","Italy",12.2194764873985,43.472476107586
"112",112,"JE","Jersey",NA,-2.12559995964288,49.21230655
"113",113,"JM","Jamaica","Jamaica",-77.3242548016489,18.1376361278684
"114",114,"JO","Jordan","Jordan",36.7794549063252,31.2454905847484
"115",115,"JP","Japan","Japan",136.881947315984,36.019075365944
"116",116,"KE","Kenya","Kenya",37.7915552866614,0.59596625217695
"117",117,"KG","Kyrgyzstan","Kyrgyzstan",74.6204048109256,41.5068937131826
"118",118,"KH","Cambodia","Cambodia",104.876085325252,12.6847286293935
"119",119,"KI","Kiribati",NA,-171.6645388,0.4483283
"120",120,"KM","Comoros",NA,44.2832964,-12.2045176
"121",121,"KN","Saint Kitts And Nevis",NA,-62.6725973,17.250512
"122",122,"KP","Korea Democratic People's Republic Of","North Korea",127.165016762812,40.1430208608446
"123",123,"KR","Korea Republic Of","South Korea",127.821317128331,36.4275986041549
"124",124,"KW","Kuwait","Kuwait",47.6000988876264,29.3072666340336
"125",125,"KY","Cayman Islands",NA,-80.5667132,19.5417212
"126",126,"KZ","Kazakhstan","Kazakhstan",67.2846086074656,48.191662092496
"127",127,"LA","Lao People's Democratic Republic","Laos",103.750259895045,18.4449780890361
"128",128,"LB","Lebanon","Lebanon",35.8709863200164,33.9118272078199
"129",129,"LC","Saint Lucia",NA,-60.975036,13.8250489
"130",130,"LI","Liechtenstein",NA,9.5531527,47.1416307
"131",131,"LK","Sri Lanka","Sri Lanka",80.6672357493165,7.7005344172481
"132",132,"LR","Liberia","Liberia",-9.41083615437112,6.43161986225299
"133",133,"LS","Lesotho","Lesotho",28.1701052951705,-29.625290493692
"134",134,"LT","Lithuania","Lithuania",23.8806402758435,55.284319484766
"135",135,"LU","Luxembourg","Luxembourg",5.965223432344,49.765705074151
"136",136,"LV","Latvia","Latvia",24.8332961498035,56.8071751342793
"137",137,"LY","Libya","Libya",17.9743527791604,26.9974604070203
"138",138,"MA","Morocco","Morocco",-8.42047954454964,29.8853946983021
"139",139,"MC","Monaco",NA,7.4276832,43.7323492
"140",140,"MD","Republic Of Moldova","Moldova",28.4104827908033,47.2036764260675
"141",141,"ME","Montenegro","Montenegro",19.2861809671983,42.7890383314013
"142",142,"MG","Madagascar","Madagascar",46.6911709147164,-19.3561140778288
"143",143,"MH","Marshall Islands",NA,168,9
"144",144,"MK","Macedonia","Macedonia",21.6978968161401,41.6059289307594
"145",145,"ML","Mali","Mali",-3.54329433945334,17.2677720617007
"146",146,"MM","Myanmar","Myanmar",96.5058409420615,21.0169998737738
"147",147,"MN","Mongolia","Mongolia",102.946405186338,46.8236825035482
"148",148,"MO","Macau",NA,113.5514142,22.1757605
"149",149,"MP","Northern Mariana Islands",NA,145.213452483189,14.1490205
"150",150,"MQ","Martinique",NA,-60.9620777,14.6113732
"151",151,"MR","Mauritania","Mauritania",-10.326396925235,20.2092672063538
"152",152,"MS","Montserrat",NA,-62.1916844,16.7417041
"153",153,"MT","Malta",NA,14.4476911,35.8885993
"154",154,"MU","Mauritius",NA,57.5703566,-20.2759451
"155",155,"MV","Maldives",NA,73.3287853,4.7064352
"156",156,"MW","Malawi","Malawi",34.1936053255793,-13.1728327166619
"157",157,"MX","Mexico","Mexico",-102.576349523987,23.9353719022448
"158",158,"MY","Malaysia","Malaysia",114.675513963341,3.54811177078971
"159",159,"MZ","Mozambique","Mozambique",35.4726171541248,-17.2304465978138
"NA",NA,NA,NA,NA,NA,NA
"161",161,"NC","New Caledonia","New Caledonia",165.534474600875,-21.2613576125265
"162",162,"NE","Niger","Niger",9.32442933817723,17.3455523533292
"163",163,"NF","Norfolk Island",NA,167.958728912637,-29.0289575
"164",164,"NG","Nigeria","Nigeria",7.99512775408979,9.54831841820998
"165",165,"NI","Nicaragua","Nicaragua",-85.0203185008025,12.848190428037
"166",166,"NL","Netherlands","Netherlands",5.5122171009654,52.2987003744418
"167",167,"NO","Norway","Norway",14.2447798911761,64.5365303290185
"168",168,"NP","Nepal","Nepal",84.0131736769253,28.2394400190494
"169",169,"NR","Nauru",NA,166.9324426,-0.5252306
"170",170,"NU","Niue",NA,-169.8613411,-19.0536414
"171",171,"NZ","New Zealand","New Zealand",170.513011374997,-43.9858177329728
"172",172,"OM","Oman","Oman",56.097598526505,20.581080291961
"173",173,"PA","Panama","Panama",-80.1091648354938,8.53001938886465
"174",174,"PC","Former Pacific Trust Territory",NA,NA,NA
"175",175,"PE","Peru","Peru",-74.3918058168472,-9.19156290513455
"176",176,"PF","French Polynesia",NA,-146.049093105952,-16.03442485
"177",177,"PG","Papua New Guinea","Papua New Guinea",144.3312155576,-6.6450071344689
"178",178,"PH","Philippines","Philippines",121.54444242782,15.7509443494214
"179",179,"PK","Pakistan","Pakistan",69.4139980631813,29.9734600255474
"180",180,"PL","Poland","Poland",19.3110143084487,52.1482602193318
"181",181,"PM","Saint Pierre And Miquelon",NA,-56.1951589074841,46.7832469
"182",182,"PN","Pitcairn",NA,-130.1017823,-25.0657719
"183",183,"PR","Puerto Rico","Puerto Rico",-66.4792222769551,18.2372245709719
"184",184,"PS","Occupied Palestinian Territory","Palestine",35.2733196228903,31.9411366224152
"185",185,"PT","Portugal","Portugal",-8.05576558829569,39.6340497749782
"186",186,"PW","Palau",NA,133.313631,6.097367
"187",187,"PY","Paraguay","Paraguay",-58.3873878335057,-23.2480419462921
"188",188,"QA","Qatar","Qatar",51.1835025789133,25.3218509742067
"189",189,"RE","Reunio",NA,55.5265771,-21.1309332
"190",190,"RO","Romania","Romania",24.9432524946354,45.857101035738
"191",191,"RS","Serbia","Republic of Serbia",20.8196512674302,44.2330372036352
"192",192,"RU","Russia","Russia",99.2165267869252,61.6925647074083
"193",193,"RW","Rwanda","Rwanda",29.9189658370799,-2.0135155258787
"194",194,"SA","Saudi Arabia","Saudi Arabia",44.5163637682647,24.1232898391053
"195",195,"SB","Solomon Islands","Solomon Islands",159.102498415282,-7.90210767639019
"196",196,"SC","Seychelles",NA,55.4540146,-4.6574977
"197",197,"SD","Sudan","Sudan",29.8626040122579,15.9905850031167
"198",198,"SE","Sweden","Sweden",16.596265846848,62.8114849680803
"199",199,"SG","Singapore",NA,103.8194992,1.357107
"200",200,"SH","Saint Helena And Dependencies",NA,-12.4870384875,-37.2465
"201",201,"SI","Slovenia","Slovenia",14.9381523207957,46.1254220590104
"202",202,"SJ","Svalbard And Jan Mayen Islands",NA,NA,NA
"203",203,"SK","Slovakia","Slovakia",19.5076571474337,48.7267113517275
"204",204,"SL","Sierra Leone","Sierra Leone",-11.7952574285599,8.53035372615305
"205",205,"SM","San Marino",NA,12.458306,43.9458623
"206",206,"SN","Senegal","Senegal",-14.5098027858594,14.354139988452
"207",207,"SO","Somalia","Somalia",45.7267007672356,4.75234775650495
"208",208,"SR","Suriname","Suriname",-55.9114562995207,4.12000803175888
"209",209,"ST","Sao Tome And Principe",NA,6.9648718,0.8875498
"211",211,"SV","El Salvador","El Salvador",-88.8729031703238,13.7260916257942
"212",212,"SY","Syrian Arab Republic","Syria",38.5442394196114,35.012614281129
"213",213,"SZ","Swaziland","Swaziland",31.3952559020653,-26.48985528852
"214",214,"TC","Turks And Caicos Islands",NA,-71.6201783,21.7214683
"215",215,"TD","Chad","Chad",18.5813295253329,15.3288673998397
"216",216,"TF","French Southern Territories","French Southern and Antarctic Lands",69.5315804704237,-49.306454911672
"217",217,"TG","Togo","Togo",0.996403943670358,8.43954195466961
"218",218,"TH","Thailand","Thailand",101.006133546261,15.0169749914165
"219",219,"TJ","Tajikistan","Tajikistan",71.0344350489611,38.5830814642108
"220",220,"TK","Tokelau",NA,-171.8196878,-9.1676396
"221",221,"TL","Timor-Lest","East Timor",125.966300273684,-8.767760362467
"222",222,"TM","Turkmenistan","Turkmenistan",59.2754302623614,39.0912401801758
"223",223,"TN","Tunisia","Tunisia",9.53471612069583,34.1729390368824
"224",224,"TO","Tonga",NA,-175.2026424,-19.9160819
"225",225,"TR","Turkey","Turkey",35.3921024579343,38.9907297279529
"226",226,"TT","Trinidad And Tobago","Trinidad and Tobago",-61.3303669144497,10.4282370892019
"227",227,"TV","Tuvalu",NA,178.1167698,-7.768959
"228",228,"TW","Taiwan Province Of China","Taiwan",120.974800737486,23.7409649797849
"229",229,"TZ","Tanzania United Republic Of","United Republic of Tanzania",34.7529881314612,-6.25773272084561
"230",230,"UA","Ukraine","Ukraine",31.3695330803563,48.9730179682021
"231",231,"UG","Uganda","Uganda",32.3575481537239,1.29548696309712
"232",232,"UM","United States Minor Outlying Islands",NA,NA,NA
"233",233,"US","United States Of America","United States of America",-99.0602406280213,39.5015541259931
"234",234,"UY","Uruguay","Uruguay",-56.0032786665485,-32.7809043652308
"235",235,"UZ","Uzbekistan","Uzbekistan",63.2036395282317,41.7486026646522
"236",236,"VA","Holy See",NA,-77.0657273269015,38.9247244
"237",237,"VC","Saint Vincent And The Grenadines",NA,-61.2765569,12.90447
"238",238,"VE","Venezuela Bolivarian Republic Of","Venezuela",-66.1638272783024,7.16213226763901
"239",239,"VG","Virgin Islands (British)",NA,-64.5661642,18.4024395
"240",240,"VI","Virgin Islands (U.s.)",NA,NA,NA
"241",241,"VN","Viet Na","Vietnam",106.285840797052,16.6579377532549
